[
  {
    "name": "Guatemala City",
    "description": "De hoofdstad en grootste stad van Guatemala, bekend om zijn levendige markten en rijke culturele geschiedenis.",
    "latitude": 14.6349,
    "longitude": -90.5069,
    "type": "city",
    "arrival": "12 juli",
    "duration": 1
  },
  {
    "name": "Antigua",
    "description": "Een prachtige koloniale stad omgeven door vulkanen, bekend om zijn goed bewaarde Spaanse barokke architectuur.",
    "latitude": 14.5611,
    "longitude": -90.7344,
    "type": "city",
    "arrival": "12 juli",
    "duration": 2
  },
  {
    "name": "El Fuego",
    "description": "Vulkaan, een avontuurlijke bestemming voor natuurliefhebbers.",
    "latitude": 14.4743,
    "longitude": -90.8808,
    "type": "adventure",
    "arrival": "15 juli",
    "duration": 2
  },
  {
    "name": "Panajachel",
    "description": "Een pittoresk stadje aan de oevers van het Atitlánmeer, bekend om zijn prachtige omgeving en inheemse cultuur.",
    "latitude": 14.7386,
    "longitude": -91.1520,
    "type": "city",
    "arrival": "17 juli",
    "duration": 2
  },
  {
    "name": "Semuc Champey",
    "description": "Een prachtig natuurmonument met kalksteenpoelen en turquoise water.",
    "latitude": 15.5333,
    "longitude": -89.9610,
    "type": "adventure",
    "arrival": "19 juli",
    "duration": 2
  },
  {
    "name": "Tikal Temple Trail",
    "description": "Een van de grootste archeologische vindplaatsen van de Maya-beschaving, gelegen in de tropische regenwouden van Noord-Guatemala.",
    "latitude": 17.2213,
    "longitude": -89.6237,
    "type": "adventure",
    "arrival": "21 juli",
    "duration": 2
  },
  {
    "name": "San Ignacio",
    "description": "Een charmant stadje in Belize, bekend om zijn nabijheid tot oude Maya-ruïnes en avontuurlijke activiteiten zoals grotonderzoek.",
    "latitude": 17.1587,
    "longitude": -89.0706,
    "type": "adventure",
    "arrival": "23 juli",
    "duration": 2
  },
  {
    "name": "Flores",
    "description": "Een pittoresk stadje gelegen op een eiland in het Petén Itzá-meer, dicht bij de oude Maya-ruïnes van Tikal.",
    "latitude": 16.9254,
    "longitude": -89.8942,
    "type": "city",
    "arrival": "NOT?",
    "duration": 0
  },
  {
    "name": "Livingston",
    "description": "Een kustplaats aan de Caribische Zee, bekend om zijn unieke Garifuna-cultuur en prachtige stranden.",
    "latitude": 15.8267,
    "longitude": -88.7573,
    "type": "beach",
    "arrival": "NOT?",
    "duration": 0
  },
  {
    "name": "Belize City",
    "description": "De grootste stad van Belize, bekend als de toegangspoort tot de vele eilanden en natuurlijke attracties van het land.",
    "latitude": 17.5046,
    "longitude": -88.1962,
    "type": "city",
    "arrival": "NOT?",
    "duration": 0
  },
  {
    "name": "Hopkins",
    "description": "Een klein kustdorp in Belize, bekend om zijn Garifuna-cultuur en reggae-sfeer.",
    "latitude": 16.8667,
    "longitude": -88.2833,
    "type": "beach",
    "arrival": "NOT?",
    "duration": 0
  },
  {
    "name": "Caye Caulker",
    "description": "Een klein eiland in de Caribische Zee, populair voor snorkelen, duiken en de relaxte sfeer.",
    "latitude": 17.7426,
    "longitude": -88.0260,
    "type": "beach",
    "arrival": "27 juli",
    "duration": 3
  },
  {
    "name": "Barrier Reef",
    "description": "Het Belize Barrier Reef is het op een na grootste koraalrifsysteem ter wereld, met een rijke diversiteit aan zeeleven.",
    "latitude": 17.4706,
    "longitude": -87.6186,
    "type": "nature",
    "arrival": "NOT?",
    "duration": 0
  },
  {
    "name": "Bacalar",
    "description": "Een stad in Mexico, bekend om de Lagune van Zeven Kleuren en ecotoeristische activiteiten zoals peddelsurfen.",
    "latitude": 18.6743,
    "longitude": -88.3972,
    "type": "sports",
    "arrival": "30 juli",
    "duration": 2
  },
  {
    "name": "Playa del Carmen",
    "description": "Een populaire badplaats in Mexico, beroemd om zijn prachtige stranden, winkels en nachtleven.",
    "latitude": 20.6296,
    "longitude": -87.0739,
    "type": "beach",
    "arrival": "1 augustus",
    "duration": 3
  }
]
